block,Openwater,Developed,ForestedGrouped,Grasslands,Crops,Wetlands,Barren,DeciduousShrub,EvergreenMixed,year,province,locationname,lat,long,totalabund,H_carinata,M_campanulae,M_inermis,M_rotundata,M_relativa,M_pugnata,O_lignaria,O_pumila,O_tersula
5,0,0.032243104,0.201986299,0.654879729,0,0.110890868,0,0.14,0.06,2016,EBF,GaleWoodsFarm,44.92833,-93.706111,1,0,0,0,0,0,0,0,0,0
7,0.009592664,0,0.162769089,0.682473425,0,0.145164822,0,0.16,0,2016,EBF,BakerPRopen,45.00423,-93.609322,1,0,0,0,0,0,0,0,0,0
10,0,0,0.040437347,0.227802869,0,0.731759784,0,0.04,0,2016,EBF,ElmCreekPRopen,45.185262,-93.427305,1,1,0,0,0,0,0,0,0,0
15,0.022366829,0.00605463,0.381387148,0.534768487,0,0.055422906,0,0.38,0,2016,EBF,LakeRebeccaPRwood,45.056558,-93.762976,1,0,0,0,0,0,0,0,0,0
34,0,0.302582497,0.009497775,0.288643244,0.321615736,0.077660748,0,0.01,0,2016,EBF,SherburneSWCD,45.310844,-93.646343,1,1,0,0,0,0,0,0,0,0
36,0.246593054,0.060684628,0.341468186,0.005059886,0,0.346194247,0,0.34,0,2016,EBF,OakdaleNPrsv.,45.01412,-92.969211,1,1,0,0,0,0,0,0,0,0
45,0,0.006410058,0.916442945,0.043998711,0,0.033148286,0,0.9,0.02,2016,EBF,WarnerNC,45.17280118,-92.83198576,1,0,0,0,0,1,0,0,0,0
52,0,0,0.003357327,0.539825685,0.455390806,0.001426182,0,0,0,2016,EBF,LakeBrophyCP,45.914917,-95.441542,1,1,0,0,0,0,0,0,0,0
53,0,0.183104749,0.501246727,0.032084831,0.102857427,0.180706267,0,0.33,0.17,2016,EBF,"EastBethel,Cedar",45.332755,-93.199346,1,0,0,0,0,0,0,1,0,0
75,0.108892248,0.105496842,0.641218415,0,0,0.144392496,0,0.64,0,2016,PP,BlueDevilValleySNA,44.802198,-95.551404,1,0,0,0,0,0,0,0,0,0
76,0.720002391,0.051784927,0,0.004586067,0,0.223626614,0,0,0,2016,LMF,BoulderLakeELC,47.04536,-92.17888,1,0,0,0,0,1,0,0,0,0
80,0,0.080136937,0,0,0,0.919863063,0,0,0,2016,LMF,RedLakePeatlandSNA,48.3383,-94.5524,1,0,0,0,0,0,0,0,0,0
84,0,0.028913204,0.827877956,0.095779524,0,0.047429316,0,0.83,0,2016,EBF,ClearLakeSNA,45.426196,-94.045309,1,1,0,0,0,0,0,0,0,0
89,0,0.07081607,0.411579153,0.517604777,0,0,0,0.39,0.02,2016,EBF,StCroixSavannaSNA,45.0017657,-92.7825629,1,0,0,0,0,0,0,0,0,0
99,0,0,0.043792171,0.642049439,0.31415839,0,0,0.04,0,2016,EBF,StOlafUPrRemStanton,44.4483139,-93.0497972,1,0,0,0,0,0,0,0,0,0
102,0.37494108,0.179196657,0.445862263,0,0,0,0,0.06,0.38,2016,LMF,RognlienMemorialP,47.496716,-95.006109,1,0,0,0,0,0,0,0,0,0
217,0.001419894,0.151797888,0.451595226,0.120605171,0.2677067,0.006875121,0,0.45,0,2017,PP,"Tansem,270St.x147Ave.",46.67463738,-96.2372107,1,1,0,0,0,0,0,0,0,0
224,0,0.181041212,0.461602199,0.045620929,0.070009961,0.241725699,0,0.31,0.15,2017,EBF,"EastBethel,Cedar",45.33324836,-93.19938368,1,0,0,0,0,0,0,0,1,0
227,0,0.545689378,0.42573789,0.004586067,0,0.010228462,0.013758202,0.43,0,2017,EBF,CherokeeRP,44.9236844,-93.1088317,1,0,0,0,0,0,0,0,0,0
234,0.064844848,0.0289956,0.14109082,0.336044548,0.028522226,0.400501959,0,0.08,0.07,2017,EBF,BecklinCP,45.59792318,-93.27666349,1,0,0,0,0,0,0,0,1,0
238,0,0,0,0.794633176,0,0.205366824,0,0,0,2017,EBF,HardwoodCreekWMA,45.226063,-92.94293,1,0,0,0,0,0,1,0,0,0
240,0.115752243,0.012116798,0.43483734,0.301294173,0.131413378,0.004586068,0,0.28,0.15,2017,EBF,"Medina,MooneyLake",45.002658,-93.527305,1,0,0,0,0,0,0,1,0,0
243,0.12761512,0,0.205179604,0.259611761,0,0.407593516,0,0.02,0.18,2017,PP,PrairieWoodsELC-CL,45.24224178,-95.04921132,1,0,0,0,0,0,0,0,0,0
249,0.444327875,0.082703093,0.390449205,0.039654168,0.023228343,0.019637316,0,0.39,0,2017,EBF,"PriorLake,JeffersPonds",44.73718528,-93.44430289,1,0,0,0,0,0,0,0,1,0
264,0.022366829,0.00605463,0.381387148,0.534768487,0,0.055422906,0,0.38,0,2017,EBF,LakeRebeccaPRwood,45.056558,-93.762976,1,0,0,0,0,0,0,0,0,0
281,0,0,0.690647458,0.291065666,0,0.018286876,0,0.69,0,2017,EBF,MurphyHanrehanPRwood,44.700293,-93.327277,1,0,0,0,0,0,0,0,0,0
291,0,0.993750745,0.003311306,0,0,0,0.00293795,0,0,2017,LMF,CollegeSt.Scholastica,46.81601253,-92.105375,1,1,0,0,0,0,0,0,0,0
292,0,0.997169233,0,0,0,0,0.002830767,0,0,2017,LMF,CollegeSt.Scholastica,46.81720947,-92.10193641,1,0,0,0,0,1,0,0,0,0
299,0,1,0,0,0,0,0,0,0,2017,EBF,MNZooWest,44.767688,-93.210394,1,1,0,0,0,0,0,0,0,0
326,0,0.098049829,0.197098027,0.529487665,0,0.175364479,0,0.2,0,2017,EBF,CedarCreekESR,45.402678,-93.199806,1,1,0,0,0,0,0,0,0,0
401,0,0.960062029,0,0.030765837,0.009172135,0,0,0,0,2018,EBF,Perham,46.58867158,-95.57194776,1,0,1,0,0,0,0,0,0,0
407,0.054601244,0,0.305167866,0.550462874,0,0.089768016,0,0.31,0,2018,EBF,LakeRebeccaPRopen,45.052915,-93.753204,1,1,0,0,0,0,0,0,0,0
408,0.163585557,0.064555295,0.66875289,0.054237911,0.036073039,0.012795308,0,0.67,0,2018,EBF,HylandLakePR-RNC,44.842865,-93.370383,1,0,0,0,0,0,0,0,0,0
415,0.067752981,0.702979449,0.21370002,0.004586068,0,0.010981482,0,0.19,0.02,2018,EBF,SilverwoodP,45.04972222,-93.22083333,1,0,1,0,0,0,0,0,0,0
426,0.212776232,0.079905596,0.36067944,0.194412292,0.152226441,0,0,0.36,0,2018,EBF,LakeRachel,45.797387,-95.544055,1,0,0,0,0,0,0,1,0,0
484,0.076750399,0.477313358,0.321470082,0.053526167,0.013288244,0,0.057651749,0.32,0,2018,EBF,MNZooEast,44.769247,-93.192544,1,0,0,0,0,0,0,0,0,0
489,0,0.075643032,0.192428066,0.482350202,0.091983046,0.157595653,0,0.19,0,2018,EBF,"Cormorant,115StxHwy145",46.74013697,-96.13921351,1,1,0,0,0,0,0,0,0,0
490,0,0,0.005629105,0.172626939,0.56868285,0.253061106,0,0.01,0,2018,EBF,BeckerSWMAn,46.85244342,-95.8466006,1,1,0,0,0,0,0,0,0,0
518,0.361743116,0,0,0.011930442,0,0.626326442,0,0,0,2018,PP,LambertonWMA,44.253677,-95.213068,1,1,0,0,0,0,0,0,0,0
523,0,0.197954115,0.151834878,0.593208109,0.054688606,0.002314292,0,0.03,0.13,2018,PP,"NewLondon,PointLake",45.1888,-95.02372,1,0,0,0,0,1,0,0,0,0
524,0,0,0.00122766,0,0,0.99877234,0,0,0,2018,LMF,LostRiverSF,48.999506,-95.75966,1,0,0,0,0,0,1,0,0,0
527,0,0,0.96423814,0.016909689,0,0.01885217,0,0.9,0.06,2018,EBF,QuarryParkSNA,45.52908,-94.24062,1,0,0,0,0,0,1,0,0,0
534,0.733178546,0.000764886,0,0,0,0.266056568,0,0,0,2018,PP,"IowaLk,BSACedarPt",43.502778,-94.457222,1,0,0,0,0,0,1,0,0,0
540,0,0.092119321,0.906780666,0,0,0.001100013,0,0.67,0.24,2018,LMF,"Gr.Marais,Hwy44x45",47.75133591,-90.47110773,1,0,0,0,0,0,0,0,0,0
13,0.001353766,0.436998547,0.218547932,0.06706045,0,0.276039306,0,0.22,0,2016,EBF,LandingMNRiverHer.,44.8033,-93.485524,2,0,0,0,0,0,0,0,2,0
21,0.054601244,0,0.305167866,0.550462874,0,0.089768016,0,0.31,0,2016,EBF,LakeRebeccaPRopen,45.052915,-93.753204,2,2,0,0,0,0,0,0,0,0
29,0,0.04056531,0.234817474,0.044263913,0.569646522,0.110706781,0,0.23,0,2016,LMF,MNNativeLandscapes,45.5875595,-93.870432,2,2,0,0,0,0,0,0,0,0
69,0,0.074829747,0.85933242,0,0,0.065837833,0,0.08,0.78,2016,LMF,LittleTooMuchLakeSNA,47.628643,-93.774946,2,0,0,0,0,0,0,2,0,0
70,0.582975737,0.380801088,0.004586068,0.015961957,0,0,0.01567515,0,0,2016,EBF,LakeNokomisP,44.910173,-93.236961,2,0,0,0,0,0,0,0,0,0
81,0,0,0.032535008,0.775993335,0,0,0.191471657,0.03,0,2016,EBF,GreyCloudDunesSNA,44.79056,-92.958951,2,0,0,0,0,0,0,0,0,0
104,0.12761512,0,0.205179604,0.259611761,0,0.407593516,0,0.02,0.18,2016,PP,PrairieWoodsELC-CL,45.24224178,-95.04921132,2,0,0,0,0,0,0,0,0,0
119,0,0.999647858,0.000352142,0,0,0,0,0,0,2016,EBF,Cedarlake,44.967834,-93.310079,2,0,1,0,0,0,0,0,0,0
128,0,0,0.602120141,0.145529888,0.033510638,0.218839332,0,0.57,0.03,2016,PP,SkalbekkenCP,44.73917,-95.41771,2,0,2,0,0,0,0,0,0,0
137,0,1,0,0,0,0,0,0,0,2016,EBF,CrepeauNPrsv.,45.043873,-93.152092,2,0,0,0,0,0,0,0,0,0
204,0,0.154340165,0.81814343,0.009172135,0.01834427,0,0,0.55,0.27,2017,LMF,WolfRidgeELC,47.38199,-91.195209,2,0,0,0,0,0,0,0,0,2
210,0,0.022437922,0,0.111913647,0.010220576,0.855427856,0,0,0,2017,PP,FeltonPrairieSNA,47.10075376,-96.41011662,2,1,0,0,0,1,0,0,0,0
228,0,0.103502908,0.041359195,0,0.855137898,0,0,0.04,0,2017,TAP,LakeBronson,48.700386,-96.671602,2,0,0,0,0,1,0,0,0,1
236,0,0.076420328,0.87625376,0,0,0.047325911,0,0.26,0.62,2017,LMF,"Duluth,MacFarlaneRD",46.8301,-92.113,2,0,0,0,0,0,0,0,0,0
237,0,0.571469728,0.380398311,0,0,0.04813196,0,0.38,0,2017,EBF,MNValleyNWR-VC,44.85983,-93.216096,2,0,0,0,0,0,0,0,0,0
241,0.259972603,0.630324818,0.036684325,0.027516405,0,0,0.045501849,0.04,0,2017,EBF,LakeNokomisP,44.912951,-93.234312,2,0,2,0,0,0,0,0,0,0
250,0,0.176512532,0.207892437,0.382713256,0.191390072,0.041491704,0,0,0.21,2017,PP,PrairieEcologyBusCenter,43.68533338,-95.17617307,2,0,0,0,0,0,0,0,0,0
256,0,0.110937661,0.385700818,0.149262203,0.103235817,0.250863501,0,0.33,0.06,2017,EBF,CedarCreekCA,45.3062344,-93.3495027,2,0,0,0,0,2,0,0,0,0
259,0.171983069,0.145516459,0.418971153,0.150676966,0,0.112852354,0,0.29,0.13,2017,EBF,NoerenbergGar.,44.955576,-93.59533,2,0,0,0,0,0,0,2,0,0
268,0.009592664,0,0.162769089,0.682473425,0,0.145164822,0,0.16,0,2017,EBF,BakerPRopen,45.00423,-93.609322,2,0,0,0,0,0,0,1,0,0
302,0,0,0,0.768240859,0.231759141,0,0,0,0,2017,EBF,LakeBrophyCP,45.91407939,-95.4422254,2,2,0,0,0,0,0,0,0,0
309,0.014173227,0.974002746,0.00353841,0.005360197,0,0.00292542,0,0,0,2017,EBF,NorthMankatoyard,44.1737407,-94.01844448,2,0,2,0,0,0,0,0,0,0
314,0,0.110736677,0,0.007102672,0.347211201,0.53494945,0,0,0,2017,PP,"Callaway,hwy159x310st",47.02065008,-95.97374267,2,2,0,0,0,0,0,0,0,0
315,0,0.123958436,0,0,0.676985339,0.199056225,0,0,0,2017,PP,"Hitterdal,120Ave.x260st",46.94940416,-96.15158922,2,1,1,0,0,0,0,0,0,0
334,0,0.040843012,0.478595772,0.453989791,0,0,0.026571425,0.44,0.04,2017,EBF,EagleBluffELC,43.75818595,-92.0047251,2,0,0,0,0,0,0,0,1,0
413,0.212152238,0.747300663,0.009172135,0.008325634,0,0,0.02304933,0.01,0,2018,EBF,CoonRapidsDamRP,45.141927,-93.313906,2,0,0,0,0,0,0,0,2,0
432,0,0.650561502,0.322373755,0,0,0.027064743,0,0.32,0,2018,EBF,MNValleyNWR-VC,44.8602093,-93.21610565,2,2,0,0,0,0,0,0,0,0
444,1,0,0,0,0,0,0,0,0,2018,EBF,"LakeFrancis,Kingston",45.22078861,-94.26291174,2,0,0,0,0,0,0,0,0,0
448,0,0.663102053,0.325916464,0.010981482,0,0,0,0.03,0.3,2018,LMF,ChesterP,46.8137,-92.0943667,2,0,0,0,0,0,0,0,0,0
449,0,0.686869517,0,0,0.313130483,0,0,0,0,2018,PP,Clarkfield,44.79020908,-95.79643578,2,0,2,0,0,0,0,0,0,0
457,0,0.567873137,0.198114454,0.149125266,0,0.050874734,0.034012408,0.18,0.02,2018,EBF,SavageFenSNA,44.76684,-93.35591,2,0,0,0,1,0,0,0,0,0
473,0,0.946330456,0,0,0.053669544,0,0,0,0,2018,PP,Nicollet,44.2754,-94.1916,2,0,2,0,0,0,0,0,0,0
474,0,0.059619772,0.940380228,0,0,0,0,0.03,0.91,2018,LMF,MooseMountainSNA,46.88055,-91.98253,2,0,0,0,0,0,0,0,0,1
486,0,0.183751959,0.164321874,0.359294727,0,0.29263144,0,0.16,0,2018,PP,"Mankato,586LnxLeSueurRv",44.12830706,-93.93926567,2,0,0,0,0,0,0,1,0,0
498,0,0.075003133,0.616807955,0.045860675,0,0.262328238,0,0.03,0.58,2018,LMF,"Bemidji,FrohnRdxHwy12",47.480143,-94.755538,2,0,0,0,0,0,0,0,0,0
506,0,0.077931407,0.812203831,0.037607169,0,0.072257593,0,0.34,0.47,2018,LMF,"Bemidji,LamonRdxPinchberryRd",47.5184725,-94.74624683,2,0,0,0,0,2,0,0,0,0
510,0,0.167409284,0.015721431,0,0.816869285,0,0,0.02,0,2018,PP,CedarRockWMA,44.5850242,-95.1779211,2,0,0,0,0,0,2,0,0,0
512,0.156997915,0.038357151,0.268313469,0.103382734,0.113823773,0.319124958,0,0.27,0,2018,PP,SmithLake,45.837244,-95.251381,2,0,0,0,0,1,0,0,0,0
513,0,0.07621825,0.03668854,0.00523476,0.221886449,0.659972001,0,0,0.03,2018,PP,BashawSWMA,44.150501,-94.941318,2,0,0,0,0,0,2,0,0,0
517,0,0.020242355,0.397092663,0.459586022,0.12307896,0,0,0.4,0,2018,EBF,SpringCreekPrairieSNA,44.555897,-92.604318,2,2,0,0,0,0,0,0,0,0
535,0,0,0,0.426126403,0.573873597,0,0,0,0,2018,EBF,CarletonCollMcNightP,44.501906,-93.029644,2,0,0,0,0,0,0,0,0,0
6,0,0.088024269,0.73639791,0.15347275,0,0.022105072,0,0.71,0.02,2016,EBF,CarverPRwood,44.877109,-93.660803,3,0,0,0,0,0,0,0,0,0
11,0.171983069,0.145516459,0.418971153,0.150676966,0,0.112852354,0,0.29,0.13,2016,EBF,NoerenbergGar.,44.955576,-93.59533,3,1,0,0,0,0,0,0,0,0
20,0,0,0.0146848,0.887950724,0.067782741,0.029581734,0,0.01,0,2016,EBF,Crow-HassanPRopen,45.188825,-93.638076,3,1,0,0,0,0,2,0,0,0
41,0,0.015660312,0.668934578,0.003406073,0.234720979,0.077278058,0,0.67,0,2016,EBF,MSchmidtCrawfordWdsSNA,45.17772,-93.779152,3,0,0,0,0,0,0,0,0,0
44,0.008006376,0.207684791,0.397393799,0.240976647,0.127403119,0.018535268,0,0.4,0,2016,EBF,QuarryHillParkNC,44.02945,-92.42831,3,1,1,0,0,1,0,0,0,0
48,0.104818176,0.076126915,0.025934162,0.038359095,0.484406883,0.270354769,0,0.03,0,2016,PP,DLWMD-240st/hwy59,46.92,-95.916,3,0,0,0,0,3,0,0,0,0
49,0,0.086156181,0.033347864,0.265788407,0.393570095,0.221137453,0,0.03,0,2016,EBF,AndersonCP,45.463028,-93.063114,3,0,0,0,0,0,0,0,0,0
66,0,0,0.358194997,0.590833414,0.050971589,0,0,0.07,0.29,2016,EBF,HastingsSandCouleeSNA,44.706389,-92.821319,3,1,1,0,0,0,0,0,0,0
67,0.052353853,0.073338605,0.035844927,0.139323399,0.187556967,0.511582249,0,0.02,0.01,2016,PP,HamdenSloughNWR/250th,46.934,-95.956,3,0,0,0,0,0,0,0,0,0
79,0.03304559,0.250772338,0.442987288,0.064179464,0,0.20901532,0,0.42,0.02,2016,EBF,W.St.Paul-DodgeNC,44.89442,-93.10056,3,0,0,0,0,0,0,0,0,0
88,0.06605215,0,0,0.859088604,0.054504093,0.020355153,0,0,0,2016,EBF,StOlafColl.,44.4656778,-93.1959528,3,0,3,0,0,0,0,0,0,0
95,0,0,0.966224118,0.016909689,0,0.016866193,0,0.91,0.06,2016,EBF,QuarryParkSNA,45.52895,-94.24091,3,0,0,0,0,1,2,0,0,0
106,0,0.108275216,0.844065772,0.047659012,0,0,0,0.84,0,2016,LMF,WolfRidgeELCFarm,47.39309,-91.20448,3,0,0,0,0,0,0,2,0,0
111,0.287508962,0.544355315,0.057527382,0,0.011528004,0.007818687,0.09126165,0.06,0,2016,EBF,N.MississippiRP-49AveN,45.0446,-93.28295,3,1,0,0,0,0,0,0,0,0
113,0.036946179,0.152565802,0,0.27780248,0.050288079,0.48239746,0,0,0,2016,PP,WoodLakeSWMA,44.122756,-94.819162,3,2,0,0,0,0,0,0,0,0
117,0.010422965,0.267815639,0.32773463,0.365058668,0,0.028968097,0,0.32,0.01,2016,EBF,LebanonHillsRP,44.786562,-93.123599,3,1,0,0,0,0,0,0,0,0
135,0.150199626,0.64300527,0.036159202,0.022432983,0.013758203,0,0.134444717,0.04,0,2016,EBF,BruceVentoNS,44.949052,-93.070028,3,2,1,0,0,0,0,0,0,0
230,0.003139059,0.696110996,0.072857996,0.22330588,0.004586068,0,0,0,0.07,2017,PP,NewLondon-S SchNA,45.29129832,-94.94380659,3,1,0,0,0,0,0,0,0,0
239,0.030269678,0.058829466,0.258402714,0.249353537,0,0.403144605,0,0.05,0.21,2017,LMF,"Taft,Fredenberg",46.99731519,-92.27228171,3,0,0,0,0,0,0,3,0,0
269,0.146376482,0,0.575289777,0.148577871,0.123486423,0.006269447,0,0.57,0,2017,EBF,Crow-HassanPRwood,45.188296,-93.643102,3,2,0,0,0,0,0,1,0,0
270,0,0.065575306,0.366510323,0.567914371,0,0,0,0.35,0.02,2017,EBF,StCroixSavannaSNA,45.0019545,-92.7829001,3,0,0,0,0,0,0,0,3,0
271,0,0.079535282,0,0.710966993,0,0.209497725,0,0,0,2017,PP,RoscoePrairieSNA,45.417954,-94.681107,3,1,0,0,0,0,0,0,0,0
313,0.780035431,2.68E-05,0.216999777,0.00293795,0,0,0,0,0.22,2017,LMF,"KabetogamaSF,WakemupBay",47.90672072,-92.59230322,3,0,0,0,0,0,0,0,0,0
429,0.384362283,0.606465582,0.009172135,0,0,0,0,0.01,0,2018,EBF,ArdenHillsIslandBeachClub,45.045538,-93.165495,3,0,3,0,0,0,0,0,0,0
435,0,0,0.274844564,0.008587688,0.716567748,0,0,0.27,0,2018,PP,"Sleepyeye,CottonwoodRv",44.292618,-94.665657,3,3,0,0,0,0,0,0,0,0
442,0,0.120068506,0.142163694,0.1950252,0.541913873,0.000828726,0,0.14,0,2018,LMF,"Bluffton,Hwy75x365st",46.49151661,-95.17770595,3,0,0,0,0,0,0,2,0,0
451,0.162665084,0.441926682,0.229821505,0,0,0.165586729,0,0.23,0,2018,EBF,WestwoodHillsNC,44.966916,-93.386894,3,0,0,0,0,0,0,0,3,0
482,0.140512806,0.086410846,0.342945326,0.004586068,0,0.420958887,0.004586068,0.34,0,2018,EBF,"Ottawa,MNRiver",44.37250613,-93.96284766,3,0,0,0,0,0,0,0,3,0
485,0,0,0,0,0.948610551,0.051389449,0,0,0,2018,PP,"St.James,131x370st",43.9444654,-94.68916304,3,0,0,0,0,0,0,1,0,0
487,0,0.05595814,0,0.844164392,0.06768488,0.007067742,0.025124846,0,0,2018,PP,"Windom,Hwy13x490ave",43.868,-95.098,3,2,0,0,0,0,0,0,0,0
514,0,0.031175116,0.395915894,0.500393578,0.072515411,0,0,0.23,0.17,2018,EBF,LostValleySNA,44.79766,-92.82478,3,0,2,0,0,1,0,0,0,0
525,0,0.043338692,0.034666689,0,0.885333027,0.036661592,0,0.03,0,2018,PP,"Correll,Hwy12xHwy36",45.299661,-96.230815,3,0,0,0,0,0,1,0,0,1
528,0,0.035604327,0.857683339,0.0924466,0,0.014265735,0,0.86,0,2018,EBF,ClearLakeSNA,45.42653228,-94.04520757,3,0,2,0,0,0,0,0,0,0
537,0,0.043463176,0,0.123616204,0.032528712,0.800391908,0,0,0,2018,PP,FeltonPrairieSNA,47.10140374,-96.40969819,3,3,0,0,0,0,0,0,0,0
14,0.106738783,0,0.603367056,0.161037807,0.121763724,0.00709263,0,0.6,0,2016,EBF,Crow-HassanPRwood,45.188017,-93.643179,4,0,0,0,0,0,0,0,0,0
17,0,0.003831287,0.311372054,0.440874068,0,0.243922591,0,0.29,0.02,2016,EBF,MurphyHanrehanPRopen,44.698704,-93.320105,4,1,0,0,0,0,0,0,2,0
27,0,0.996697344,0,0,0,0.003302656,0,0,0,2016,EBF,TamarackNCother,45.108214,-93.045017,4,1,1,0,0,0,1,0,0,0
28,0,0.183644384,0.213233878,0.406872776,0.157462686,0.038786276,0,0,0.21,2016,PP,PrairieEcologyBusCenter,43.685444,-95.176036,4,0,0,0,0,0,0,0,0,0
64,0,0.196532741,0.637695882,0.06230729,0.068069225,0.035394862,0,0.64,0,2016,PP,BirchCouleeBattlefield,44.57611,-94.97116,4,0,0,0,0,0,0,0,0,0
90,0,0.017208963,0.840271022,0,0.024205157,0.118314858,0,0.84,0,2016,EBF,ChamberlainWoodsSNA,44.400927,-93.944978,4,0,0,0,0,3,0,0,1,0
211,0,0.036464291,0.837949896,0.101143118,0,0.024442695,0,0.84,0,2017,EBF,ClearLakeSNA,45.4263111,-94.04518477,4,4,0,0,0,0,0,0,0,0
257,0,0.04381971,0,0.13878995,0.81724585,0.00014449,0,0,0,2017,PP,"Comfrey,320Ave.x110St",44.117504,-94.81627,4,0,0,0,0,0,0,0,0,0
258,0.103000673,0.232958829,0.189861506,0.130037213,0,0.344141779,0,0.14,0.05,2017,LMF,HappyDancingTurtle,46.72068962,-94.41738552,4,4,0,0,0,0,0,0,0,0
298,0.066746807,0.038147038,0.037615903,0.31507275,0.299530251,0.24288725,0,0.04,0,2017,EBF,CraneMeadowsNWR,45.92984797,-94.25440884,4,2,0,0,0,0,0,0,0,2
317,0,0.10461376,0.056205772,0,0.839180468,0,0,0.06,0,2017,PP,"Gary,Hwy7x390St.",47.45606815,-96.23439974,4,1,0,3,0,0,0,0,0,0
320,0.048180586,0.090286812,0.473951538,0.277213679,0.024527924,0.081253394,0.004586068,0.03,0.44,2017,PP,PrairieWoodsELC-PT/BG,45.24766268,-95.04078124,4,3,0,0,0,0,0,0,0,0
331,0.061266951,0.696449002,0.194138183,0,0,0.048145864,0,0.19,0,2017,EBF,FrenchRP,45.026522,-93.441374,4,0,4,0,0,0,0,0,0,0
420,0.003931784,0,0.094914196,0.733691603,0.131335581,0.036126837,0,0.09,0,2018,EBF,Crow-HassanPRopen,45.188465,-93.639374,4,0,0,0,0,0,0,0,4,0
434,0.872172515,0,0.054645635,0.027541596,0.029057432,0.013644872,0.00293795,0.05,0,2018,EBF,"Ashby,Hwy82xT-105",46.10232576,-95.81953711,4,3,0,0,0,0,0,0,0,0
445,0,0.277178446,0.016952485,0.660401966,0,0.045467103,0,0.02,0,2018,EBF,"Minnetrista,Hwy26x110",44.97269279,-93.68120498,4,0,1,0,0,0,0,0,0,0
463,0.08265664,0.117238522,0.615941281,0.034863154,0,0.149300403,0,0.53,0.09,2018,EBF,MiesvilleRavinePReast,44.543432,-92.80256,4,0,0,0,0,0,0,0,0,0
464,0.302437204,0.104266091,0.267593999,0.325702706,0,0,0,0.24,0.02,2018,EBF,SpringLakeRP,44.7647,-92.938,4,0,1,0,0,2,0,0,0,0
492,0,0.044519715,0,0.124204151,0.034889319,0.796386815,0,0,0,2018,PP,FeltonPrairieSNA,47.10141104,-96.40966601,4,1,0,0,0,0,0,0,1,2
509,0,1,0,0,0,0,0,0,0,2018,LMF,Duluth,46.83075,-92.03363,4,0,0,0,0,0,0,0,0,4
516,0,0,0.854702776,0.124522453,0,0.02077477,0,0.63,0.23,2018,EBF,UncasDuneSNA-S,45.398,-93.67,4,0,0,0,0,1,2,0,0,1
536,0.065656524,0.81317006,0.048075853,0.028025117,0,0,0.045072446,0.05,0,2018,EBF,"St.Paul,USt.Thomas",44.93827675,-93.19604567,4,1,3,0,0,0,0,0,0,0
3,0.053366783,0.117436809,0.493167762,0.217379065,0,0.118649581,0,0.46,0.03,2016,EBF,CarverPR-LNC,44.881827,-93.68261,5,1,0,0,0,0,0,0,0,0
35,0.128590461,0.079845096,0.099364953,0.199055137,0.017443823,0.475700531,0,0.1,0,2016,PP,"Mankato,KodiakLnx586Ln",44.1039,-93.941,5,1,0,0,0,0,0,0,0,0
47,0,0.076657536,0,0,0.403689057,0.519653407,0,0,0,2016,PP,DLWMD-43AveN/280StN,46.921,-96.227,5,4,0,0,0,0,1,0,0,0
59,0,0.106285738,0.087937098,0.779110909,0.026666254,0,0,0.09,0,2016,EBF,BlanketFlowerPrairieSNAs,46.6793,-96.205394,5,5,0,0,0,0,0,0,0,0
63,0.196190185,0.088740139,0,0.018937751,0.416106519,0.280025406,0,0,0,2016,PP,JeralSWMA,46.974,-96.407,5,5,0,0,0,0,0,0,0,0
115,0.026469368,0,0.727941721,0.245588911,0,0,0,0.6,0.13,2016,EBF,LebanonHillsRPsouth,44.778931,-93.127909,5,0,0,0,0,2,0,0,3,0
123,0,0.061487056,0.410520402,0.11412957,0.357026741,0.056836231,0,0.35,0.07,2016,EBF,RiceLakeSavannaSNA,45.539543,-93.915825,5,4,1,0,0,0,0,0,0,0
223,0.129543459,0.103930657,0.192707995,0.233686059,0.336573169,0.003558662,0,0.19,0,2017,EBF,"Ashby,LakeChristina",46.104155,-95.760043,5,2,0,0,0,0,0,0,0,0
253,0,0.073648409,0.336035754,0.07434323,0.484526807,0.031445799,0,0.34,0,2017,EBF,"Isanti,orchard",45.46607595,-93.06720442,5,3,0,0,0,0,0,0,0,0
267,0.003931784,0,0.094914196,0.733691603,0.131335581,0.036126837,0,0.09,0,2017,EBF,Crow-HassanPRopen,45.188465,-93.639374,5,4,0,0,0,0,0,0,0,0
276,0.061266951,0.696449002,0.194138183,0,0,0.048145864,0,0.19,0,2017,EBF,FrenchRP,45.026522,-93.441374,5,0,0,0,0,2,0,0,3,0
288,0,0,0.560182126,0.02128222,0.418535654,0,0,0.53,0.03,2017,EBF,ChimneyRockSNA,44.64058,-92.89727,5,0,0,0,0,0,0,0,1,0
422,0.006737643,0.075119719,0.070282511,0.811775714,0,0.036084413,0,0.07,0,2018,EBF,CarverPRopen,44.871522,-93.700005,5,0,0,0,0,0,0,0,0,0
430,0.086951274,0.155824435,0.140251908,0.607745796,5.45E-05,0.009172135,0,0.13,0.01,2018,EBF,"Dassel, 240St.x726Ave.",45.0967,-94.3055,5,1,0,0,0,0,0,0,0,0
441,0,0.122130413,0.746161366,0.099937996,0,0.031770224,0,0.69,0.05,2018,LMF,HawkRidgeNR,46.847,-92.031861,5,0,0,0,0,0,0,3,0,1
458,0.027092955,0,0.277593076,0.559327631,0.001584559,0.134401779,0,0.28,0,2018,EBF,CarltonArbTrail,44.474458,-93.143573,5,1,0,0,0,0,0,0,3,0
500,0.392236918,0,0.607763082,0,0,0,0,0.01,0.59,2018,LMF,BWCAFarmLake,47.89797455,-91.70859045,5,0,0,0,0,1,0,0,0,0
18,0.216783271,0.743361234,0.009172135,0.008009754,0,0,0.022673606,0.01,0,2016,EBF,CoonRapidsDamRP,45.141944,-93.313889,6,0,0,0,0,0,0,0,3,0
38,0,0.059668398,0,0,0.940331602,0,0,0,0,2016,PP,AlternativeRootsFarm,44.148158,-94.39295,6,2,1,0,1,0,0,0,0,0
43,0,0.178406062,0.283526279,0.148412734,0,0.389654925,0,0.1,0.18,2016,LMF,HappyDancingTurtle,46.72132114,-94.4158937,6,0,0,4,0,2,0,0,0,0
54,0,0.078505378,0.074020576,0,0,0.847474046,0,0.07,0,2016,EBF,CarlosAveryWMA-Zodiac,45.298382,-93.101585,6,3,0,0,0,0,0,0,3,0
61,0.565388339,0,0.434611661,0,0,0,0,0.01,0.43,2016,LMF,BWCAFarmLake,47.898356,-91.709497,6,0,0,0,0,0,0,0,0,0
72,0,0,0.554209926,0.021282221,0.424507853,0,0,0.53,0.02,2016,EBF,ChimneyRockSNA,44.640646,-92.897547,6,0,0,0,0,0,0,0,6,0
82,0.13191406,0.101380659,0.092595013,0.637747304,0,0.036362964,0,0.09,0,2016,EBF,MiesvilleRavinePReast,44.540173,-92.800638,6,6,0,0,0,0,0,0,0,0
86,0.178301661,0.073175783,0.44571873,0,0,0.302803826,0,0.45,0,2016,LMF,ThreeIslandLakeCPnorth,47.625407,-94.78177,6,0,0,0,0,0,0,0,0,0
112,0,0.131861013,0.054732596,0.368112853,0,0.445293538,0,0.01,0.04,2016,EBF,hwy47/GreenValleyRd,45.289338,-93.420013,6,6,0,0,0,0,0,0,0,0
251,0.12071137,0.081865569,0.106505513,0.193849486,0.022645602,0.47442246,0,0.11,0,2017,PP,"Mankato,KodiakLnx586Ln",44.10399657,-93.94093588,6,0,0,0,0,0,0,0,0,0
261,0.163585557,0.064555295,0.66875289,0.054237911,0.036073039,0.012795308,0,0.67,0,2017,EBF,HylandLakePR-RNC,44.842865,-93.370383,6,0,0,0,0,0,0,6,0,0
262,0.041418835,0.637133505,0.313702837,0.001349408,0,0.006395414,0,0.28,0.03,2017,EBF,SilverwoodP,45.048913,-93.222604,6,1,1,0,0,0,0,4,0,0
265,0.00128003,0.436936,0.218705254,0.066969323,0,0.276109393,0,0.22,0,2017,EBF,LandingMNRiverHer.,44.8033,-93.48552,6,1,5,0,0,0,0,0,0,0
409,0.001353766,0.436998547,0.218547932,0.06706045,0,0.276039306,0,0.22,0,2018,EBF,LandingMNRiverHer.,44.8033,-93.485524,6,0,1,0,0,0,0,0,0,0
419,0.164730354,0,0.327999755,0.265950766,0.01834427,0.222974854,0,0.31,0.02,2018,EBF,MurphyHanrehanPRopen,44.69609577,-93.32190744,6,6,0,0,0,0,0,0,0,0
425,0.032988751,0.057925468,0.231426378,0.356092507,0,0.321566896,0,0.04,0.19,2018,LMF,"Taft,Fredenberg",46.99731994,-92.27150834,6,0,0,0,0,2,0,0,0,4
438,0,0.12529843,0.070641586,0.780991879,0.023068105,0,0,0.07,0,2018,EBF,"Prosper,120xDeerRd",43.52871243,-91.8672914,6,4,0,0,0,0,1,0,0,0
460,0.494252867,0,0.027491791,0.034077255,0.393753006,0.050425081,0,0,0.03,2018,PP,RoundLakexLongLake,43.95162131,-95.36841906,6,0,0,0,0,0,1,0,0,0
462,0.040767371,0.039354921,0.840129128,0,0.073724988,0.006023592,0,0.84,0,2018,PP,NorselandBSAcamp,44.414167,-94.106667,6,3,0,0,0,0,0,0,0,0
465,0,1,0,0,0,0,0,0,0,2018,EBF,Faribault,44.289205,-93.2547744,6,0,2,0,0,0,0,1,1,0
507,0.047981919,0.200012352,0.212663316,0.102425341,0,0.436917071,0,0.14,0.08,2018,LMF,HappyDancingTurtle,46.7211769,-94.41719777,6,0,0,1,0,2,3,0,0,0
526,0,0.190355679,0.400838384,0.299436492,0.109369445,0,0,0.4,0,2018,PP,UpperSiouxAgencySP,44.73662143,-95.45835487,6,0,0,0,0,0,1,3,0,0
532,0,0.031257555,0,0,0.968742445,0,0,0,0,2018,PP,Sanborn,44.00001,-95.000001,6,6,0,0,0,0,0,0,0,0
533,0,0.561553344,0.017730923,0.2888761,0.131839632,0,0,0.02,0,2018,EBF,"Preston,StPaulStxFarmerSt",43.67768108,-92.08344526,6,2,0,0,0,0,0,0,4,0
8,0.03751917,0.058473979,0.481970756,0.160028455,0,0.262007639,0,0.47,0.01,2016,EBF,BakerPRwooded,45.008734,-93.611096,7,0,0,0,0,0,0,6,0,0
25,0,0.095641707,0.268071272,0.457091726,0,0.179195295,0,0.27,0,2017,EBF,CedarCreekESR,45.40248,-93.200255,7,4,0,0,0,0,0,0,0,0
65,0,0,0.918719222,0.081280778,0,0,0,0.56,0.35,2016,EBF,ZumbroFallsWoodsSNA,44.2577639,-92.4069574,7,0,0,0,0,0,0,1,4,0
110,0,0,0.587536576,0.361847062,0.050616362,0,0,0.59,0,2016,EBF,SpringCreekPrairieSNAse,44.553858,-92.59734,7,1,0,0,0,0,3,0,1,0
116,0.250205385,0.049795146,0.350897583,0.349101886,0,0,0,0.33,0.03,2016,EBF,SpringLakeRP,44.76395651,-92.93797697,7,2,0,0,0,0,0,1,0,0
209,0,0.017208963,0.840271022,0,0.024205157,0.118314858,0,0.84,0,2017,EBF,ChamberlainWoodsSNA,44.400927,-93.944978,7,0,0,0,0,0,0,1,4,0
221,0.212776232,0.079905596,0.36067944,0.194412292,0.152226441,0,0,0.36,0,2017,EBF,LakeRachel,45.797387,-95.544055,7,1,2,0,0,0,3,0,0,0
222,0,0.090977047,0.485352986,0,0,0.423669967,0,0.25,0.24,2017,LMF,ThreeIslandLakeCPsouth,47.614299,-94.782036,7,0,0,0,0,0,0,5,0,2
278,0.206777369,0.752762657,0.009172135,0.00840966,0,0,0.022878179,0.01,0,2017,EBF,CoonRapidsDamRP,45.14189043,-93.31389282,7,0,0,0,0,0,0,0,7,0
283,0,0.046163845,0.154981262,0.753022877,0,0.045832016,0,0.1,0.05,2017,EBF,GaleWoodsFarm,44.9275,-93.705833,7,1,0,0,1,0,0,0,0,0
293,0,0,0,0.452916939,0.547083061,0,0,0,0,2017,EBF,CarletonCollMcNightP,44.50181681,-93.02969641,7,0,3,0,0,0,0,0,0,0
324,0,0.008282497,0.533714851,0.458002652,0,0,0,0.53,0,2017,EBF,MiesvilleRavinePR,44.5454167,-92.811222,7,0,0,0,0,0,0,1,6,0
402,0,0.137004178,0,0,0.862995822,0,0,0,0,2018,PP,"Mankato,JasmineRdx576ave",44.0768,-93.97937,7,0,0,0,0,0,0,1,0,0
410,0,1,0,0,0,0,0,0,0,2018,EBF,GaleWoodsFarm,44.9275,-93.705833,7,0,0,0,0,0,0,0,0,0
427,0.4800276,0.094384498,0.425587901,0,0,0,0,0.04,0.38,2018,LMF,"KabetogamaSF,WakemupBay",47.90322531,-92.59532875,7,0,0,1,0,0,0,0,0,5
461,0,0,0,0,1,0,0,0,0,2018,PP,LakeCrystalHwy11xHwy20,44.153253,-94.21885,7,0,5,0,0,0,0,0,0,0
467,0,0.724235296,0,0.087302807,0.187515261,0,0.000946636,0,0,2018,EBF,Dover,43.968626,-92.13429,7,1,3,0,0,0,0,0,0,0
471,0,0.103506381,0.041359195,0,0.855134424,0,0,0.04,0,2018,TAP,LakeBronson,48.700386,-96.671601,7,1,0,0,0,1,1,1,0,1
521,0,0.924009853,0.057645877,0,0,0.018344269,0,0.06,0,2018,EBF,CountryCrossingsP,45.30249582,-93.6032573,7,2,0,0,0,0,0,0,5,0
40,0,0.056901197,0.572943794,0.343583585,0,0,0.026571424,0.53,0.04,2016,EBF,EagleBluffELC,43.758569,-92.0044,8,0,2,0,0,0,0,0,3,0
60,0.05577838,0.000912731,0.896659981,0,0,0,0.046648907,0.19,0.71,2016,LMF,DeepPortageLC,46.899883,-94.388436,8,0,0,0,0,0,0,6,0,0
203,0.952885328,0,0.001377964,0,0.022939919,0.015231071,0.007565717,0,0,2017,EBF,"ParkersPrairie,LakeMaryn",46.1404007,-95.19331641,8,0,0,0,0,0,0,5,0,0
208,0,0.07681687,0,0.360718755,0.209422101,0.353042275,0,0,0,2017,PP,UlenStateWMA,47.07117473,-96.3440109,8,5,0,0,0,1,1,0,0,1
244,0.086951274,0.155824435,0.140251908,0.607745796,5.45E-05,0.009172135,0,0.13,0.01,2017,EBF,"Dassel, 240St.x726Ave.",45.0967,-94.3055,8,8,0,0,0,0,0,0,0,0
248,0,0.007221781,0.275423412,0.717354806,0,0,0,0.26,0.01,2017,EBF,PrairieMoonNursery,43.90244643,-91.63760847,8,2,0,0,0,0,0,0,0,0
280,0.054601244,0,0.305167866,0.550462874,0,0.089768016,0,0.31,0,2017,EBF,LakeRebeccaPRopen,45.052915,-93.753204,8,6,0,0,0,0,2,0,0,0
285,0,0.052070057,0,0.892429526,0.037800128,0,0.017700289,0,0,2017,EBF,SandCouleeSNA,44.693298,-92.820792,8,6,1,0,0,0,0,0,0,0
295,0.191192653,0.808807347,0,0,0,0,0,0,0,2017,LMF,"Duluth,Glensheen",46.8153783,-92.05174155,8,1,0,0,0,4,0,0,0,2
304,0.283913486,0.087738896,0.366820842,0.210492141,0.00312813,0.047906504,0,0.15,0.22,2017,PP,BigStoneLkSPBonanza,45.45634,-96.720831,8,3,0,0,0,0,0,0,0,0
403,0,0,0.038631638,0.026566579,0.812039904,0.122761879,0,0.04,0,2018,EBF,"BlmgPr.,Hwy30xCedarRv",43.86978,-93.00263,8,0,0,0,0,0,0,0,0,0
428,0,0.050647395,0,0.523758788,0.404268576,0.021325242,0,0,0,2018,PP,JeffersPetroglyphs,44.09002672,-95.05791273,8,1,1,0,0,0,1,0,0,0
459,0,1,0,0,0,0,0,0,0,2018,LMF,GrandRapidsNE6thAve,47.2395,-93.5195,8,0,0,0,0,0,0,0,0,6
499,0.009172135,0.143541973,0.13913422,0.016033075,0,0.692118598,0,0.14,0,2018,EBF,CarlosAveryWMA-Zodiac,45.29957006,-93.10230917,8,0,0,0,0,0,0,0,4,0
502,0,0.045953001,0.025126698,0.261350479,0.667569822,0,0,0.03,0,2018,EBF,"Lewiston, HavenwoodRd",43.9498557,-91.8216353,8,0,0,0,0,0,1,0,1,0
1,0,1,0,0,0,0,0,0,0,2016,EBF,Larpenteur/Hamline,44.99185564,-93.1565615,9,0,0,0,0,0,0,0,5,0
94,0,0.405703231,0.06304268,0.004586067,0,0.526668022,0,0.04,0.03,2016,EBF,BlainePreserveSNA,45.1401747,-93.1769739,9,1,0,0,0,2,0,0,6,0
229,0,0.054446135,0,0,0.945553865,0,0,0,0,2017,PP,AlternativeRootsFarm,44.14838777,-94.39328856,9,1,3,0,0,0,0,0,0,0
252,0.552390215,0,0.447609785,0,0,0,0,0,0.45,2017,LMF,BWCAFarmLake,47.89981598,-91.7092771,9,0,0,0,0,0,0,4,0,0
266,0.006737643,0.075119719,0.070282511,0.811775714,0,0.036084413,0,0.07,0,2017,EBF,CarverPRopen,44.871522,-93.700005,9,4,2,0,0,1,2,0,0,0
284,0.03751917,0.058473979,0.481970756,0.160028455,0,0.262007639,0,0.47,0.01,2017,EBF,BakerPRwooded,45.008734,-93.611096,9,0,0,0,0,0,0,9,0,0
404,0.03751917,0.058473979,0.481970756,0.160028455,0,0.262007639,0,0.47,0.01,2018,EBF,BakerPRwooded,45.008734,-93.611096,9,0,0,0,0,0,0,7,0,0
416,0,0,0.040437347,0.227802869,0,0.731759784,0,0.04,0,2018,EBF,ElmCreekPRopen,45.185262,-93.427305,9,0,0,0,0,0,0,0,4,0
437,0.28130331,0.630643592,0.067471751,0.020581348,0,0,0,0,0.07,2018,PP,NewLondon-S SchNAnorth,45.3,-94.94,9,3,6,0,0,0,0,0,0,0
443,0,0.075715377,0.399979232,0.38275659,0.141548801,0,0,0.4,0,2018,EBF,"Maine,Hwy35x74",46.40441307,-95.86416907,9,1,0,2,0,0,1,0,0,0
478,0.33359527,0.551393519,0.03668854,0.027516405,0,0,0.050806266,0.04,0,2018,EBF,LakeNokomisP,44.91291102,-93.23475934,9,0,6,0,0,0,0,2,1,0
519,0,0.088458199,0.240264997,0.671276804,0,0,0,0.23,0.01,2018,EBF,BlanketFlowerPrairieSNAn,46.68470305,-96.21487326,9,3,0,5,0,1,0,0,0,0
531,0,0.105392279,0.018447082,0.548769596,0.327391043,0,0,0.02,0,2018,EBF,SandCouleeSNA,44.69347683,-92.81784481,9,3,0,0,0,0,0,0,0,0
4,0.163585557,0.064555295,0.66875289,0.054237911,0.036073039,0.012795308,0,0.67,0,2016,EBF,HylandLakePR-RNC,44.842865,-93.370383,10,0,0,0,0,0,0,0,0,0
55,0.048180586,0.090286812,0.473951538,0.277213679,0.024527924,0.081253394,0.004586068,0.03,0.44,2016,PP,PrairieWoodsELC-PT/BG,45.24766268,-95.04078124,10,2,0,0,0,0,0,0,0,0
93,0,0,0,0.907170391,0.066540503,0.026289106,0,0,0,2016,PP,FeltonPrairieSNAsouth,47.049606,-96.427514,10,3,0,0,0,1,5,0,0,0
124,0.024868886,0.109126859,0.833903177,0,0,0.032101079,0,0.33,0.51,2016,EBF,BelwinConsv.,44.925546,-92.800159,10,1,0,0,0,1,5,0,2,0
207,0,0.040843012,0.478595772,0.453989791,0,0,0.026571425,0.44,0.04,2017,EBF,EagleBluffELC,43.75818595,-92.0047251,10,0,0,0,0,0,0,3,4,0
215,0,0.25151137,0.502946928,0.032102473,0,0.213439229,0,0.2,0.31,2017,LMF,OrganicConsumersAssoc,47.420427,-91.24619,10,0,0,0,0,0,0,5,0,0
272,0,0.572723722,0.015567549,0.004586067,0,0.407122662,0,0.02,0,2017,EBF,SavageFenSNAnorth,44.77465,-93.362017,10,5,0,0,0,0,0,1,0,0
436,0,0.077908671,0.307482135,0.078190736,0,0.536418458,0,0.25,0.06,2018,LMF,"Saginaw,CanosiaRdxPineRv",46.8602797,-92.36527569,10,0,0,0,0,0,0,5,0,1
440,0,0,0.517815251,0.089634711,0.392550038,0,0,0.38,0.14,2018,EBF,"Houston,T-243",43.7387,-91.4407,10,0,0,0,0,0,1,0,0,0
446,0,0.092303708,0.906636279,0,0,0.001060013,0,0.67,0.24,2018,LMF,"Gr.Marais,Hwy44x45",47.75133861,-90.47110236,10,0,0,0,0,0,0,1,0,5
450,0,0.03356643,0,0.034327618,0.89066097,0.041444982,0,0,0,2018,PP,"Sunberg,165avexHwy28",45.393082,-95.28319,10,0,0,0,0,0,0,3,0,0
475,0,0.108987635,0.102723967,0.586700983,0.010664636,0.178113722,0.012809057,0.1,0,2018,PP,CambriaWMA,44.2287,-94.3036,10,1,0,0,0,0,9,0,0,0
496,0,0.993024594,0.004037457,0,0,0,0.00293795,0,0,2018,LMF,CollegeSt.Scholastica,46.81598034,-92.10536963,10,6,0,0,0,0,0,3,0,1
118,0,0.07744135,0.380487037,0.537333185,0.004738428,0,0,0.29,0.09,2016,EBF,MiesvilleRavinePR,44.543613,-92.811067,11,1,0,0,0,0,0,9,0,0
233,0,0.087266725,0.730205803,0.002937949,0.179589522,0,0,0.65,0.08,2017,LMF,"Bemidji,229Ave.xTreeBarkDr.",47.37858,-94.88262,11,0,0,0,0,0,0,9,0,0
247,0,0.075396304,0.317032184,0.100602238,0,0.506969274,0,0.26,0.06,2017,LMF,"Saginaw,CanosiaRdxPineRv",46.860448,-92.365249,11,0,0,0,0,0,0,9,0,2
300,0.008650189,0,0.002937949,0.320312899,0.626151925,0.041947038,0,0,0,2017,PP,"Glenwood,Selnesx270St",45.59821594,-95.40527529,11,2,0,0,3,0,0,0,0,0
323,0.010422965,0.267815639,0.32773463,0.365058668,0,0.028968097,0,0.32,0.01,2017,EBF,LebanonHillsRP,44.786562,-93.123599,11,5,6,0,0,0,0,0,0,0
414,0.171983069,0.145516459,0.418971153,0.150676966,0,0.112852354,0,0.29,0.13,2018,EBF,NoerenbergGar.,44.955576,-93.59533,11,0,0,0,0,0,0,6,1,0
453,0,0.057461054,0.088798543,0.329517125,0.461877786,0.062345491,0,0.09,0,2018,PP,"Revere,Hwy6x240st",44.13895112,-95.36010991,11,2,0,0,0,0,0,0,0,0
476,0,0.001007242,0.573356536,0.425636222,0,0,0,0.57,0,2018,EBF,MiesvilleRavinePR,44.54551668,-92.81107492,11,3,0,0,0,0,3,0,0,0
477,0.261619358,0.385578614,0.286557258,0,0,0.06624477,0,0.29,0,2018,EBF,MississippiGorgeRP,44.937536,-93.203532,11,0,2,0,0,2,0,0,4,0
497,0.219813508,0.780186492,0,0,0,0,0,0,0,2018,LMF,"Duluth,Glensheen",46.81561934,-92.05107636,11,4,0,0,0,3,1,0,0,3
522,0.001212776,0.070284369,0.039290597,0.336924164,0.284172845,0.241489237,0.026626012,0.04,0,2018,PP,LacquiParleSPnorth,45.0520449,-95.88843769,11,6,0,0,0,0,0,0,0,0
529,0,0.50303217,0.293560787,0.060361211,0.00508269,0.137963141,0,0.23,0.06,2018,EBF,WhitewaterSP,44.06217266,-92.04442448,11,1,1,0,3,0,5,0,0,0
108,0.027092955,0,0.277593076,0.559327631,0.001584559,0.134401779,0,0.28,0,2016,EBF,CarltonArbTrail,44.474458,-93.143573,12,3,0,0,0,0,3,0,0,0
260,0,0.072756313,0.588835103,0.001519134,0.272267339,0.064622111,0,0.59,0,2017,EBF,ElmCreekPRwooded,45.193875,-93.486896,12,0,0,0,0,0,0,12,0,0
279,0,0,0.040437347,0.227802869,0,0.731759784,0,0.04,0,2017,EBF,ElmCreekPRopen,45.185262,-93.427305,12,0,0,0,0,0,0,0,2,2
308,0,0.05082214,0,0.523545772,0.404594333,0.021037756,0,0,0,2017,PP,JeffersPetroglyphs,44.090026,-95.057919,12,0,0,0,0,0,0,0,0,0
424,0.061266951,0.696449002,0.194138183,0,0,0.048145864,0,0.19,0,2018,EBF,FrenchRP,45.026522,-93.441374,12,0,2,0,0,0,0,0,7,0
431,0,0.063737283,0,0,0.936262717,0,0,0,0,2018,PP,AlternativeRootsFarm,44.14820301,-94.39277357,12,0,4,0,0,0,0,6,0,0
439,0.025999469,0.029189969,0.838042561,0.106768002,0,0,0,0.8,0.03,2018,EBF,PilotMoundTwshp,43.804875,-92.080623,12,0,0,0,0,2,1,5,1,0
468,0.056682048,0.18216789,0,0.501177677,0.213796396,0.046175989,0,0,0,2018,PP,PipestoneNM,44.00991883,-96.320655,12,3,3,0,1,0,3,0,0,0
508,0.723707286,0.050177474,0,0.004586068,0,0.221529173,0,0,0,2018,LMF,BoulderLakeELC,47.045359,-92.17881,12,2,0,0,0,5,0,0,0,5
511,0,0.104309277,0,0.586242729,0.309447994,0,0,0,0,2018,PP,KanaranziCrkxHwy13,43.67238888,-95.81580213,12,1,0,0,1,0,3,0,0,0
539,0,0,0,0.599976052,0.32741737,0.072606578,0,0,0,2018,LMF,"Grasston,PokegamaLkRd",45.82019635,-93.08432496,12,6,0,0,0,6,0,0,0,0
214,0,0.137014471,0,0,0.862985529,0,0,0,0,2017,PP,"Mankato,JasmineRdx576ave",44.07680166,-93.97936918,13,1,0,0,2,0,6,0,0,0
305,0,0.190554067,0.392135273,0.303480468,0.113830193,0,0,0.39,0,2017,PP,UpperSiouxAgencySP,44.7366,-95.4584,13,0,2,0,1,0,3,0,0,0
454,0.207916549,0.072214463,0.349973642,0.21715465,0.004586068,0.138913185,0.009241444,0.31,0.04,2018,EBF,"Buffalo,BoltonDr.x35",45.17775026,-93.92676893,13,2,7,0,0,0,0,0,0,0
30,0.002644204,0.07190474,0.039290598,0.344469461,0.276316684,0.235859796,0.029514517,0.04,0,2016,PP,LacquiParleSPnorth,45.05196,-95.88847,14,7,1,0,0,0,0,1,0,0
46,0,0.005331182,0.278068121,0.716600697,0,0,0,0.26,0.01,2016,EBF,PrairieMoonNursery,43.902483,-91.63762,14,6,3,0,0,0,0,0,0,0
50,0.064477472,0.028516671,0.137572901,0.337916519,0.031818184,0.399698251,0,0.07,0.06,2016,EBF,BecklinCP,45.597932,-93.27673,14,4,0,0,0,0,0,0,2,0
235,0,0.024181118,0.298980035,0.209513064,0.411499687,0.055826096,0,0.3,0,2017,EBF,AndersonCP,45.46433024,-93.06604571,14,5,0,0,0,0,6,0,0,0
242,0.169119283,0.432837145,0.23064122,0,0,0.167402351,0,0.23,0,2017,EBF,WestwoodHillsNC,44.966944,-93.386944,14,0,0,0,0,0,0,0,6,0
274,0.12826559,0.134295539,0.709922465,0,0.027516407,0,0,0.01,0.7,2017,PP,SibleySPse,45.31344,-95.03235,14,3,0,0,0,0,8,0,0,0
277,0.168500775,0,0.322036296,0.257899973,0.01834427,0.233218686,0,0.3,0.02,2017,EBF,MurphyHanrehanPRopen,44.696,-93.3219,14,6,2,0,0,0,0,0,2,0
31,0.125005474,0.499559315,0.085219228,0.239872258,0,0.050343726,0,0.09,0,2016,EBF,SavageCmP-McCollPdELC,44.756,-93.365,15,6,4,0,0,5,0,0,0,0
85,0.004557626,0.245682934,0.5564022,0.186621364,0.004586068,0.001392112,0.000757697,0.06,0.5,2016,PP,SibleySPnw,45.3165,-95.0386,15,2,0,0,0,0,1,0,0,0
219,0.009172135,0.156770012,0.15892051,0.124271273,0,0.55086607,0,0.16,0,2017,EBF,CarlosAveryWMA-Zodiac,45.30041528,-93.10162253,15,7,0,0,0,0,0,1,0,0
316,0,0.079114366,0.047337309,0,0.873548325,0,0,0,0.05,2017,PP,nearBejouSWMA,47.441875,-96.015611,15,5,0,0,0,3,5,0,0,1
412,0.040955821,0.062748103,0.592325793,0.05602025,0,0.247950033,0,0.59,0,2018,EBF,ElmCreekPR-ENC,45.15442,-93.449562,15,0,0,0,0,0,0,14,0,0
452,0,0,0,0.591115611,0.330942231,0.077942157,0,0,0,2018,LMF,"Grasston,PokegamaLkRd",45.82023934,-93.08433837,15,4,0,0,0,8,2,0,0,1
469,0.022320525,0.553669109,0.390453383,0,1.57E-05,0.033541262,0,0,0.39,2018,LMF,FondDuLacTribalComCols,46.689352,-92.453236,15,0,0,0,0,11,0,0,0,2
480,0,0.754108969,0.184097759,0.033681237,0,0.028112035,0,0.11,0.07,2018,EBF,"St.Paul,ComoP",44.977222,-93.156944,15,0,0,0,0,0,0,10,5,0
481,0,0.027919605,0.012645236,0.35643542,0.493977974,0.109021764,0,0.01,0.01,2018,EBF,"Austin,JCHormelNC",43.681183,-92.9367,15,7,0,0,0,1,0,0,0,0
503,0,0.074071901,0.670018402,0.059232639,0,0.1964683,0.000208759,0.23,0.44,2018,LMF,"Burnett,CloquetRv",46.901,-92.5109,15,0,0,1,0,1,0,13,0,0
520,0,0.107229334,0.090992044,0.771197209,0.030581413,0,0,0.09,0,2018,EBF,BlanketFlowerPrairieSNAs,46.67916819,-96.20521731,15,6,0,7,0,0,1,0,0,1
120,0,0.571469728,0.380398311,0,0,0.04813196,0,0.38,0,2016,EBF,MNValleyNWR-VC,44.85983,-93.216096,16,0,0,0,0,0,0,2,2,0
200,0.022320525,0.553669109,0.390453383,0,1.57E-05,0.033541262,0,0,0.39,2017,LMF,FondDuLacTribalComCols,46.689352,-92.453236,16,1,0,2,0,8,0,1,0,1
218,0.243696628,0.356320712,0.238208705,0.082453731,0,0.079320224,0,0.24,0,2017,EBF,SavageCmP-McCollPdELC,44.75476,-93.366611,16,4,2,0,2,0,1,0,0,0
254,0,0.065665541,0.038428026,0.083274235,0.812632198,0,0,0.03,0.01,2017,PP,LaqQuiParleSP,44.99835659,-95.81679053,16,7,0,0,0,0,0,9,0,0
275,0,0.088024269,0.73639791,0.15347275,0,0.022105072,0,0.71,0.02,2017,EBF,CarverPRwood,44.877109,-93.660803,16,0,0,0,0,0,0,15,0,0
405,0.022366829,0.00605463,0.381387148,0.534768487,0,0.055422906,0,0.38,0,2018,EBF,LakeRebeccaPRwood,45.056558,-93.762976,16,0,0,0,0,0,0,14,0,0
479,0.046498515,0.089488974,0.435740444,0.073613917,0,0.345486015,0.009172135,0.22,0.22,2018,EBF,St.CroixIslandsSWA,45.17108247,-92.76099808,16,0,1,0,0,1,2,0,3,0
16,0,0,0.313507677,0.228248376,0,0.458243947,0,0.31,0,2016,EBF,ElmCreekPR-ENCEAST,45.150073,-93.433603,17,0,0,0,0,0,0,16,0,0
205,0,0.074829747,0.85933242,0,0,0.065837833,0,0.08,0.78,2017,LMF,LittleTooMuchLakeSNA,47.628643,-93.774946,17,0,0,0,0,0,0,12,0,5
263,0.040955821,0.062748103,0.592325793,0.05602025,0,0.247950033,0,0.59,0,2017,EBF,ElmCreekPR-ENC,45.15442,-93.449562,17,0,0,0,0,0,0,15,0,0
273,0,0,0.03771286,0.774093103,0,0,0.188194037,0.04,0,2017,EBF,GreyCloudDunesSNA,44.79051464,-92.95890219,17,0,1,0,0,0,0,0,4,0
255,0,0,0.927897847,0.072102153,0,0,0,0.59,0.34,2017,EBF,ZumbroFallsWoodsSNA,44.25775,-92.40672,18,0,0,0,0,0,0,16,0,0
282,0.053366783,0.117436809,0.493167762,0.217379065,0,0.118649581,0,0.46,0.03,2017,EBF,CarverPR-LNC,44.881827,-93.68261,18,2,1,0,0,0,5,4,0,0
290,0,0,0.038297025,0.02656531,0.812590656,0.122547008,0,0.04,0,2017,EBF,"BlmgPr.,Hwy30xCedarRv",43.86978303,-93.00263085,18,0,0,1,0,17,0,0,0,0
411,0.053366783,0.117436809,0.493167762,0.217379065,0,0.118649581,0,0.46,0.03,2018,EBF,CarverPR-LNC,44.881827,-93.68261,18,2,0,0,3,0,4,0,0,0
417,0,0.072756313,0.588835103,0.001519134,0.272267339,0.064622111,0,0.59,0,2018,EBF,ElmCreekPRwooded,45.193875,-93.486896,18,0,1,0,0,0,0,17,0,0
483,0,0.995481162,0.004518838,0,0,0,0,0,0,2018,EBF,NorthMankatoyard,44.172914,-94.018446,18,0,1,0,0,0,0,7,7,1
530,0,0.074829747,0.85933242,0,0,0.065837833,0,0.08,0.78,2018,LMF,LittleTooMuchLakeSNA,47.628643,-93.774946,18,0,0,0,0,0,0,17,0,1
289,0,0.191495206,0.545538765,0.102845328,0,0.1601207,0,0.55,0,2017,PP,MinneopaSP,44.1482646,-94.09519858,19,1,0,0,0,0,0,18,0,0
206,0,6.83E-07,0.499028374,0.357910656,0.143060287,0,0,0.47,0.03,2017,EBF,SpringCreekPrairieSNA,44.5569032,-92.6067192,20,2,0,0,0,0,0,8,10,0
286,0.05421783,0.001218007,0.897915257,0,0,0,0.046648906,0.19,0.71,2017,LMF,DeepPortageLC,46.8998437,-94.38839621,20,0,0,0,0,0,0,17,0,0
294,0.018016524,0,0.251230273,0.613058914,0.019580389,0.0981139,0,0.25,0,2017,EBF,CarltonArbTrail,44.47397562,-93.14360446,20,4,0,0,0,0,9,0,5,0
32,0,0.051494109,0.355924131,0.121573712,0.443545386,0.027462662,0,0.36,0,2016,PP,SofMankato,44.080973,-93.977624,21,4,0,0,4,0,3,0,0,0
433,0,0.274358267,0.231104804,0.354588588,0.032102473,0.107845867,0,0.19,0.04,2018,EBF,TamarackNC,45.10079086,-93.03715295,22,1,0,0,11,0,6,0,4,0
501,0,0.101638087,0,0,0,0.898361913,0,0,0,2018,LMF,"Makinen,Hwy4xTownLnRd",47.36754316,-92.25888989,22,0,0,0,0,2,0,15,0,4
296,0,0.146501921,0.698491624,0.020896076,0,0.129524311,0.004586068,0.21,0.49,2017,LMF,HartleyNC,46.83828138,-92.08264059,24,3,0,0,2,2,1,15,0,0
307,0.022646245,0.097674763,0.72673412,0,0,0.152944871,0,0.51,0.22,2017,LMF,RumRiverSF,45.86392556,-93.5163135,24,0,0,0,0,0,0,24,0,0
400,0.265148575,0.559988185,0.070757109,0,0,0.070331644,0.033774487,0.07,0,2018,EBF,N.MississippiRP,45.03995182,-93.28424073,24,4,1,0,0,9,6,0,0,0
466,0,0.131424071,0,0,0.868575929,0,0,0,0,2018,EBF,"ParkersPrairie,LakeMarys",46.12707746,-95.19880957,24,0,0,0,0,0,0,21,0,2
472,0.286301175,0.065362061,0.0289865,0.431749705,0.18760056,0,0,0,0.03,2018,PP,"BinghamLake,xHwy44",43.92406431,-95.04070944,24,8,0,0,0,0,5,0,0,0
493,6.21E-05,0.141125243,0.684154527,0.038640423,0,0.131431651,0.004586067,0.24,0.44,2018,LMF,HartleyNC,46.83846473,-92.08303019,25,1,0,0,0,0,0,22,0,2
